{
  "locations": [
    {
      "id": "sapporo_station",
      "name": "札幌駅",
      "category": "station",
      "latitude": 43.06795,
      "longitude": 141.35075,
      "radius_m": 400,
      "camera": { "distance": 150, "angle_x": 46, "angle_y": -40 }
    },
    {
      "id": "sendai_station",
      "name": "仙台駅",
      "category": "station",
      "latitude": 38.26005,
      "longitude": 140.88155,
      "radius_m": 380,
      "camera": { "distance": 140, "angle_x": 45, "angle_y": -43 }
    },
    {
      "id": "niigata_station",
      "name": "新潟駅",
      "category": "station",
      "latitude": 37.91145,
      "longitude": 139.06165,
      "radius_m": 350,
      "camera": { "distance": 125, "angle_x": 43, "angle_y": -42 }
    },
    {
      "id": "nerima_station",
      "name": "練馬駅",
      "category": "station",
      "latitude": 35.73755,
      "longitude": 139.65425,
      "radius_m": 300,
      "camera": { "distance": 95, "angle_x": 42, "angle_y": -45 }
    },
    {
      "id": "ikebukuro_station",
      "name": "池袋駅",
      "category": "station",
      "latitude": 35.72905,
      "longitude": 139.71135,
      "radius_m": 350,
      "camera": { "distance": 120, "angle_x": 44, "angle_y": -38 }
    },
    {
      "id": "sensoji",
      "name": "浅草寺",
      "category": "landmark",
      "latitude": 35.71455,
      "longitude": 139.79735,
      "radius_m": 350,
      "camera": { "distance": 105, "angle_x": 36, "angle_y": -50 }
    },
    {
      "id": "tokyo_skytree",
      "name": "東京スカイツリー",
      "category": "landmark",
      "latitude": 35.70965,
      "longitude": 139.81085,
      "radius_m": 400,
      "camera": { "distance": 190, "angle_x": 50, "angle_y": -58 }
    },
    {
      "id": "shinjuku_station",
      "name": "新宿駅",
      "category": "station",
      "latitude": 35.68925,
      "longitude": 139.69955,
      "radius_m": 400,
      "camera": { "distance": 155, "angle_x": 46, "angle_y": -42 }
    },
    {
      "id": "shibuya_station",
      "name": "渋谷駅",
      "category": "station",
      "latitude": 35.65865,
      "longitude": 139.70055,
      "radius_m": 400,
      "camera": { "distance": 145, "angle_x": 44, "angle_y": -35 }
    },
    {
      "id": "yokohama_station",
      "name": "横浜駅",
      "category": "station",
      "latitude": 35.46525,
      "longitude": 139.62315,
      "radius_m": 400,
      "camera": { "distance": 155, "angle_x": 46, "angle_y": -38 }
    },
    {
      "id": "k_arena_yokohama",
      "name": "Kアリーナ横浜",
      "category": "landmark",
      "latitude": 35.46395,
      "longitude": 139.63035,
      "radius_m": 350,
      "camera": { "distance": 130, "angle_x": 42, "angle_y": -38 }
    },
    {
      "id": "nagoya_station",
      "name": "名古屋駅",
      "category": "station",
      "latitude": 35.17035,
      "longitude": 136.88115,
      "radius_m": 400,
      "camera": { "distance": 160, "angle_x": 47, "angle_y": -42 }
    },
    {
      "id": "osaka_station",
      "name": "大阪駅",
      "category": "station",
      "latitude": 34.70185,
      "longitude": 135.49565,
      "radius_m": 400,
      "camera": { "distance": 165, "angle_x": 47, "angle_y": -40 }
    },
    {
      "id": "hiroshima_station",
      "name": "広島駅",
      "category": "station",
      "latitude": 34.39675,
      "longitude": 132.47545,
      "radius_m": 360,
      "camera": { "distance": 135, "angle_x": 44, "angle_y": -44 }
    },
    {
      "id": "hakata_station",
      "name": "博多駅",
      "category": "station",
      "latitude": 33.58965,
      "longitude": 130.42045,
      "radius_m": 380,
      "camera": { "distance": 145, "angle_x": 45, "angle_y": -41 }
    }
  ]
}
